{"type":"FeatureCollection","features":[{"type":"Feature","geometry":{"type":"Point","coordinates":[-2.61419,51.5596]},"properties":{"ServiceName":"Hedgeway School","OpenStatus":"Open","marker-color":"#cac9ca","marker-size":"small","marker-symbol":"circle"}},{"type":"Feature","geometry":{"type":"Point","coordinates":[-2.4649,53.6797]},"properties":{"ServiceName":"Woodlands School","OpenStatus":"Open","marker-color":"#cac9ca","marker-size":"small","marker-symbol":"circle"}},{"type":"Feature","geometry":{"type":"Point","coordinates":[-1.90277,50.933]},"properties":{"ServiceName":"Beeches School","OpenStatus":"Open","marker-color":"#cac9ca","marker-size":"small","marker-symbol":"circle"}},{"type":"Feature","geometry":{"type":"Point","coordinates":[-1.90209,50.9323]},"properties":{"ServiceName":"Boveridge College","OpenStatus":"Open","marker-color":"#cac9ca","marker-size":"small","marker-symbol":"circle"}},{"type":"Feature","geometry":{"type":"Point","coordinates":[-2.74176,53.6964]},"properties":{"ServiceName":"Brooklands School","OpenStatus":"Open","marker-color":"#cac9ca","marker-size":"small","marker-symbol":"circle"}},{"type":"Feature","geometry":{"type":"Point","coordinates":[-2.16695,52.5858]},"properties":{"ServiceName":"Cedars School","OpenStatus":"Open","marker-color":"#cac9ca","marker-size":"small","marker-symbol":"circle"}},{"type":"Feature","geometry":{"type":"Point","coordinates":[-0.12347,51.2661]},"properties":{"ServiceName":"Chaldon School","OpenStatus":"Open","marker-color":"#cac9ca","marker-size":"small","marker-symbol":"circle"}},{"type":"Feature","geometry":{"type":"Point","coordinates":[0.9735,52.4611]},"properties":{"ServiceName":"Eccles School","OpenStatus":"Open","marker-color":"#cac9ca","marker-size":"small","marker-symbol":"circle"}},{"type":"Feature","geometry":{"type":"Point","coordinates":[-0.08683,52.3305]},"properties":{"ServiceName":"Fairway School","OpenStatus":"Open","marker-color":"#cac9ca","marker-size":"small","marker-symbol":"circle"}},{"type":"Feature","geometry":{"type":"Point","coordinates":[-3.47918,51.203]},"properties":{"ServiceName":"Foxes","OpenStatus":"Open","marker-color":"#cac9ca","marker-size":"small","marker-symbol":"circle"}},{"type":"Feature","geometry":{"type":"Point","coordinates":[-2.13464,53.0276]},"properties":{"ServiceName":"Hanley School","OpenStatus":"Open","marker-color":"#cac9ca","marker-size":"small","marker-symbol":"circle"}},{"type":"Feature","geometry":{"type":"Point","coordinates":[-1.4834,53.6904]},"properties":{"ServiceName":"Ivy Lane School","OpenStatus":"Open","marker-color":"#cac9ca","marker-size":"small","marker-symbol":"circle"}},{"type":"Feature","geometry":{"type":"Point","coordinates":[-2.8177,53.7781]},"properties":{"ServiceName":"Keyes Barn School","OpenStatus":"Open","marker-color":"#cac9ca","marker-size":"small","marker-symbol":"circle"}},{"type":"Feature","geometry":{"type":"Point","coordinates":[-0.39781,51.2735]},"properties":{"ServiceName":"Poppyfield School","OpenStatus":"Open","marker-color":"#cac9ca","marker-size":"small","marker-symbol":"circle"}},{"type":"Feature","geometry":{"type":"Point","coordinates":[-0.11483,51.1668]},"properties":{"ServiceName":"Redehall School","OpenStatus":"Open","marker-color":"#cac9ca","marker-size":"small","marker-symbol":"circle"}},{"type":"Feature","geometry":{"type":"Point","coordinates":[-0.98393,51.4966]},"properties":{"ServiceName":"Rowan School","OpenStatus":"Open","marker-color":"#cac9ca","marker-size":"small","marker-symbol":"circle"}},{"type":"Feature","geometry":{"type":"Point","coordinates":[-3.47918,51.203]},"properties":{"ServiceName":"Reynards Care","OpenStatus":"Open","marker-color":"#cac9ca","marker-size":"small","marker-symbol":"circle"}},{"type":"Feature","geometry":{"type":"Point","coordinates":[-1.48608,52.929]},"properties":{"ServiceName":"Ryefields School","OpenStatus":"Open","marker-color":"#cac9ca","marker-size":"small","marker-symbol":"circle"}},{"type":"Feature","geometry":{"type":"Point","coordinates":[-2.49808,51.6892]},"properties":{"ServiceName":"Severnside School","OpenStatus":"Open","marker-color":"#cac9ca","marker-size":"small","marker-symbol":"circle"}},{"type":"Feature","geometry":{"type":"Point","coordinates":[-2.2154,53.3361]},"properties":{"ServiceName":"Summerfields School","OpenStatus":"Open","marker-color":"#a0d1ff","marker-size":"small","marker-symbol":"circle"}},{"type":"Feature","geometry":{"type":"Point","coordinates":[-0.32768,51.0718]},"properties":{"ServiceName":"Vincent House School","OpenStatus":"Open","marker-color":"#cac9ca","marker-size":"small","marker-symbol":"circle"}},{"type":"Feature","geometry":{"type":"Point","coordinates":[0.9735,52.4611]},"properties":{"ServiceName":"White House School","OpenStatus":"Open","marker-color":"#cac9ca","marker-size":"small","marker-symbol":"circle"}},{"type":"Feature","geometry":{"type":"Point","coordinates":[-2.22995,52.3488]},"properties":{"ServiceName":"Wilden View School","OpenStatus":"Open","marker-color":"#cac9ca","marker-size":"small","marker-symbol":"circle"}},{"type":"Feature","geometry":{"type":"Point","coordinates":[0.00442986,52.0986]},"properties":{"ServiceName":"Meldreth Manor School","OpenStatus":"Open","marker-color":"#cac9ca","marker-size":"small","marker-symbol":"circle"}},{"type":"Feature","geometry":{"type":"Point","coordinates":[0.00442992,52.0985]},"properties":{"ServiceName":"Meldreth Manor Childrens Home","OpenStatus":"Open","marker-color":"#cac9ca","marker-size":"small","marker-symbol":"circle"}},{"type":"Feature","geometry":{"type":"Point","coordinates":[0.00393991,52.0983]},"properties":{"ServiceName":"Orchard Manor","OpenStatus":"Open","marker-color":"#cac9ca","marker-size":"small","marker-symbol":"circle"}},{"type":"Feature","geometry":{"type":"Point","coordinates":[-1.2207,53.1306]},"properties":{"ServiceName":"R.E.A.L. Mansfield","OpenStatus":"Open","marker-color":"#cac9ca","marker-size":"small","marker-symbol":"circle"}},{"type":"Feature","geometry":{"type":"Point","coordinates":[-1.3726,52.5393]},"properties":{"ServiceName":"R.E.A.L. Hinckley","OpenStatus":"Open","marker-color":"#cac9ca","marker-size":"small","marker-symbol":"circle"}},{"type":"Feature","geometry":{"type":"Point","coordinates":[-2.22518,51.898]},"properties":{"ServiceName":"Central","OpenStatus":"Open","marker-color":"#cac9ca","marker-size":"small","marker-symbol":"circle"}},{"type":"Feature","geometry":{"type":"Point","coordinates":[-0.0976001,51.2885]},"properties":{"ServiceName":"Chaldon Education Centre","OpenStatus":"Open","marker-color":"#cac9ca","marker-size":"small","marker-symbol":"circle"}},{"type":"Feature","geometry":{"type":"Point","coordinates":[-1.2205,53.1319]},"properties":{"ServiceName":"R.E.A.L. Central & General","OpenStatus":"Open","marker-color":"#cac9ca","marker-size":"small","marker-symbol":"circle"}},{"type":"Feature","geometry":{"type":"Point","coordinates":[null,null]},"properties":{"ServiceName":"R.E.A.L. Alternative Provision","OpenStatus":"Open","marker-color":"#cac9ca","marker-size":"small","marker-symbol":"circle"}}]}